rosbagTimestamp,header,seq,stamp,secs,nsecs,frame_id,uav_name,nato_name,uav_type,uav_mass,control_manager_diag_hz,control_manager_diag_color,controllers,- EmergencyController,- Se3Controller,- MpcController,gains,- soft,- supersoft,- tight,trackers,- NullTracker,- MpcTracker,- LandoffTracker,- JoyTracker,- SpeedTracker,constraints,- slow,- medium,fly_state,null_tracker,secs_flown,odom_hz,odom_color,odom_x,odom_y,odom_z,odom_hdg,odom_frame,odom_estimators_hori,- GPS,odom_estimators_vert,- HEIGHT,- BARO,- RTK,odom_estimators_hdg,- PIXHAWK,- GYRO,- COMPASS,cmd_x,cmd_y,cmd_z,cmd_hdg,cpu_load,cpu_ghz,free_ram,total_ram,free_hdd,mavros_hz,mavros_color,mavros_battery_hz,mavros_state_hz,mavros_cmd_hz,mavros_mode,mavros_armed,mavros_gps_ok,mavros_gps_qual,battery_volt,battery_curr,battery_wh_drained,thrust,mass_estimate,mass_set,custom_topics,-,topic_name,topic_hz,topic_color,custom_string_outputs,- -R 1 crashes,- '-g Max flight alt,- 'I see,custom_services,flying_normally,have_goal,callbacks_enabled
1622128690900847653,,46,,0,0,'',"""uav16""","""pat""","""f450""","""\x02""",11.0,102,,,,,"""N/A""",True,0,100.00000762939453,102,10.279123306274414,25.80666732788086,0.13353504240512848,-2.1942532062530518,"""uav16/gps_origin""",,,,0.0,0.0,0.0,0.0,10.216450691223145,3.505443572998047,13.93756103515625,15.356372833251953,4149,99.5,102,0.500003457069397,100.00000762939453,100.00000762939453,"""OFFBOARD""",True,True,0.722419023513794,16.53700065612793,-4.269999980926514,-0.5356391072273254,0.10000000149011612,2.200000047683716,2.200000047683716,,"""Garmin_pix""",85.00000762939453,102,,10 m',NOTHING',[],False,False,False
1622128691900851680,,47,,0,0,'',"""uav16""","""pat""","""f450""","""\x02""",11.000028610229492,102,,,,,"""N/A""",True,0,100.00029754638672,102,10.258018493652344,25.779848098754883,0.13731588423252106,-2.1939854621887207,"""uav16/gps_origin""",,,,0.0,0.0,0.0,0.0,6.614447116851807,3.5520505905151367,13.927665710449219,15.356372833251953,4149,99.5002670288086,102,0.500003457069397,100.00027465820312,100.00027465820312,"""OFFBOARD""",True,True,0.7461786866188049,16.53700065612793,-4.269999980926514,-0.5356391072273254,0.10000000149011612,2.200000047683716,2.200000047683716,,"""Garmin_pix""",85.0002212524414,102,,10 m',NOTHING',[],False,False,False
1622128691901165470,,47,,0,0,'',"""uav16""","""pat""","""f450""","""\x02""",11.000028610229492,102,,,,,"""N/A""",True,0,100.00029754638672,102,10.258018493652344,25.779848098754883,0.13731588423252106,-2.1939854621887207,"""uav16/gps_origin""",,,,0.0,0.0,0.0,0.0,6.614447116851807,3.5520505905151367,13.927665710449219,15.356372833251953,4149,99.5002670288086,102,0.500003457069397,100.00027465820312,100.00027465820312,"""OFFBOARD""",True,True,0.7461786866188049,16.53700065612793,-4.269999980926514,-0.5356391072273254,0.10000000149011612,2.200000047683716,2.200000047683716,,"""Garmin_pix""",85.0002212524414,102,,10 m',NOTHING',[],False,False,False
1622128692900855207,,48,,0,0,'',"""uav16""","""pat""","""f450""","""\x02""",10.99998664855957,102,,,,,"""N/A""",True,0,99.99989318847656,102,10.234061241149902,25.75182342529297,0.13644000887870789,-2.1935486793518066,"""uav16/gps_origin""",,,,0.0,0.0,0.0,0.0,1.3204225301742554,3.550617218017578,13.923629760742188,15.356372833251953,4149,99.99987030029297,102,0.49999961256980896,99.49987030029297,99.49987030029297,"""OFFBOARD""",True,True,0.7626960277557373,16.531999588012695,-4.079999923706055,-0.5731279850006104,0.10000000149011612,2.200000047683716,2.200000047683716,,"""Garmin_pix""",84.99989318847656,102,,10 m',NOTHING',[],False,False,False
1622128693900849735,,49,,0,0,'',"""uav16""","""pat""","""f450""","""\x02""",11.000000953674316,102,,,,,"""N/A""",True,0,100.0000228881836,102,10.189995765686035,25.733421325683594,0.13947425782680511,-2.1927175521850586,"""uav16/gps_origin""",,,,0.0,0.0,0.0,0.0,1.1463844776153564,3.5217514038085938,13.924854278564453,15.356372833251953,4149,100.00001525878906,102,0.49999961256980896,99.50000762939453,99.50000762939453,"""OFFBOARD""",True,True,0.7752029895782471,16.531999588012695,-4.079999923706055,-0.5731279850006104,0.10000000149011612,2.200000047683716,2.200000047683716,,"""Garmin_pix""",85.00000762939453,102,,10 m',NOTHING',[],False,False,False
1622128693901200179,,49,,0,0,'',"""uav16""","""pat""","""f450""","""\x02""",11.000000953674316,102,,,,,"""N/A""",True,0,100.0000228881836,102,10.189995765686035,25.733421325683594,0.13947425782680511,-2.1927175521850586,"""uav16/gps_origin""",,,,0.0,0.0,0.0,0.0,1.1463844776153564,3.5217514038085938,13.924854278564453,15.356372833251953,4149,100.00001525878906,102,0.49999961256980896,99.50000762939453,99.50000762939453,"""OFFBOARD""",True,True,0.7752029895782471,16.531999588012695,-4.079999923706055,-0.5731279850006104,0.10000000149011612,2.200000047683716,2.200000047683716,,"""Garmin_pix""",85.00000762939453,102,,10 m',NOTHING',[],False,False,False
1622128694900852747,,50,,0,0,'',"""uav16""","""pat""","""f450""","""\x02""",11.000001907348633,102,,,,,"""N/A""",True,0,100.00003814697266,102,10.149598121643066,25.715938568115234,0.13093870878219604,-2.1924118995666504,"""uav16/gps_origin""",,,,0.0,0.0,0.0,0.0,1.3192611932754517,3.538285255432129,13.926437377929688,15.356372833251953,4149,100.0000228881836,102,0.4999997019767761,100.0000228881836,100.0000228881836,"""OFFBOARD""",True,True,0.7920376658439636,16.52899932861328,-3.9100000858306885,-0.6090313196182251,0.10000000149011612,2.200000047683716,2.200000047683716,,"""Garmin_pix""",85.00001525878906,102,,10 m',NOTHING',[],False,False,False
1622128695900851829,,51,,0,0,'',"""uav16""","""pat""","""f450""","""\x02""",11.000000953674316,102,,,,,"""N/A""",True,0,99.99998474121094,102,10.105033874511719,25.696115493774414,0.13350790739059448,-2.1916842460632324,"""uav16/gps_origin""",,,,0.0,0.0,0.0,0.0,1.3181018829345703,3.508502960205078,13.92636489868164,15.356372833251953,4149,100.0,102,0.4999997019767761,100.50000762939453,100.50000762939453,"""OFFBOARD""",True,True,0.8047826886177063,16.52899932861328,-3.9100000858306885,-0.6090313196182251,0.10000000149011612,2.200000047683716,2.200000047683716,,"""Garmin_pix""",85.50000762939453,102,,10 m',NOTHING',[],False,False,False
1622128695901193057,,51,,0,0,'',"""uav16""","""pat""","""f450""","""\x02""",11.000000953674316,102,,,,,"""N/A""",True,0,99.99998474121094,102,10.105033874511719,25.696115493774414,0.13350790739059448,-2.1916842460632324,"""uav16/gps_origin""",,,,0.0,0.0,0.0,0.0,1.3181018829345703,3.508502960205078,13.92636489868164,15.356372833251953,4149,100.0,102,0.4999997019767761,100.50000762939453,100.50000762939453,"""OFFBOARD""",True,True,0.8047826886177063,16.52899932861328,-3.9100000858306885,-0.6090313196182251,0.10000000149011612,2.200000047683716,2.200000047683716,,"""Garmin_pix""",85.50000762939453,102,,10 m',NOTHING',[],False,False,False
1622128696900856722,,52,,0,0,'',"""uav16""","""pat""","""f450""","""\x02""",10.999994277954102,102,,,,,"""N/A""",True,0,99.99993896484375,102,10.056084632873535,25.68413734436035,0.12913306057453156,-2.1909193992614746,"""uav16/gps_origin""",,,,0.0,0.0,0.0,0.0,1.4938488006591797,3.52569580078125,13.925334930419922,15.356372833251953,4149,99.99993896484375,102,0.499999076128006,100.49993896484375,100.49993896484375,"""OFFBOARD""",True,True,0.8169080018997192,16.530000686645508,-3.8499999046325684,-0.644385576248169,0.10000000149011612,2.200000047683716,2.200000047683716,,"""Garmin_pix""",85.49995422363281,102,,10 m',NOTHING',[],False,False,False
1622128696901177625,,52,,0,0,'',"""uav16""","""pat""","""f450""","""\x02""",10.999994277954102,102,,,,,"""N/A""",True,0,99.99993896484375,102,10.056084632873535,25.68413734436035,0.12913306057453156,-2.1909193992614746,"""uav16/gps_origin""",,,,0.0,0.0,0.0,0.0,1.4938488006591797,3.52569580078125,13.925334930419922,15.356372833251953,4149,99.99993896484375,102,0.499999076128006,100.49993896484375,100.49993896484375,"""OFFBOARD""",True,True,0.8169080018997192,16.530000686645508,-3.8499999046325684,-0.644385576248169,0.10000000149011612,2.200000047683716,2.200000047683716,,"""Garmin_pix""",85.49995422363281,102,,10 m',NOTHING',[],False,False,False
1622128697900866298,,53,,0,0,'',"""uav16""","""pat""","""f450""","""\x02""",10.999906539916992,102,,,,,"""N/A""",True,0,99.99915313720703,102,10.012792587280273,25.663742065429688,0.12787768244743347,-2.1904118061065674,"""uav16/gps_origin""",,,,0.0,0.0,0.0,0.0,6.260434150695801,3.497159957885742,13.925125122070312,15.356372833251953,4149,99.99915313720703,102,0.499999076128006,99.99915313720703,99.99915313720703,"""OFFBOARD""",True,True,0.829850971698761,16.530000686645508,-3.8499999046325684,-0.644385576248169,0.10000000149011612,2.200000047683716,2.200000047683716,,"""Garmin_pix""",84.99928283691406,102,,10 m',NOTHING',[],False,False,False
1622128697901180835,,53,,0,0,'',"""uav16""","""pat""","""f450""","""\x02""",10.999906539916992,102,,,,,"""N/A""",True,0,99.99915313720703,102,10.012792587280273,25.663742065429688,0.12787768244743347,-2.1904118061065674,"""uav16/gps_origin""",,,,0.0,0.0,0.0,0.0,6.260434150695801,3.497159957885742,13.925125122070312,15.356372833251953,4149,99.99915313720703,102,0.499999076128006,99.99915313720703,99.99915313720703,"""OFFBOARD""",True,True,0.829850971698761,16.530000686645508,-3.8499999046325684,-0.644385576248169,0.10000000149011612,2.200000047683716,2.200000047683716,,"""Garmin_pix""",84.99928283691406,102,,10 m',NOTHING',[],False,False,False
1622128698900866931,,54,,0,0,'',"""uav16""","""pat""","""f450""","""\x02""",10.999903678894043,102,,,,,"""N/A""",False,0,99.99911499023438,102,9.986631393432617,25.63658905029297,0.13348634541034698,-2.1901416778564453,"""uav16/gps_origin""",,,,9.993521690368652,25.642147064208984,0.13551975786685944,-2.1900782585144043,11.385350227355957,3.4449844360351562,13.92022705078125,15.356372833251953,4149,99.99913024902344,102,0.4999988079071045,99.49913024902344,99.49913024902344,"""OFFBOARD""",True,True,0.8461823463439941,16.514999389648438,-6.170000076293945,-0.7010206580162048,0.2703334391117096,2.200000047683716,2.200000047683716,,"""Garmin_pix""",84.99925231933594,102,,10 m',NOTHING',[],False,True,True
1622128698901196407,,54,,0,0,'',"""uav16""","""pat""","""f450""","""\x02""",10.999903678894043,102,,,,,"""N/A""",False,0,99.99911499023438,102,9.986631393432617,25.63658905029297,0.13348634541034698,-2.1901416778564453,"""uav16/gps_origin""",,,,9.993521690368652,25.642147064208984,0.13551975786685944,-2.1900782585144043,11.385350227355957,3.4449844360351562,13.92022705078125,15.356372833251953,4149,99.99913024902344,102,0.4999988079071045,99.49913024902344,99.49913024902344,"""OFFBOARD""",True,True,0.8461823463439941,16.514999389648438,-6.170000076293945,-0.7010206580162048,0.2703334391117096,2.200000047683716,2.200000047683716,,"""Garmin_pix""",84.99925231933594,102,,10 m',NOTHING',[],False,True,True
1622128699900859121,,55,,0,0,'',"""uav16""","""pat""","""f450""","""\x02""",11.000080108642578,102,,,,,"""N/A""",False,0,100.000732421875,102,10.059154510498047,25.590221405029297,0.4348548650741577,-2.134538173675537,"""uav16/gps_origin""",,,,9.993767738342285,25.64238929748535,0.3633197546005249,-2.1900782585144043,11.952191352844238,3.4847192764282227,13.921714782714844,15.356372833251953,4149,99.50071716308594,102,0.4999988079071045,100.00074005126953,100.00074005126953,"""OFFBOARD""",True,True,0.8604480028152466,16.514999389648438,-6.170000076293945,-0.7010206580162048,0.48591065406799316,2.1730189323425293,2.200000047683716,,"""Garmin_pix""",85.00061798095703,102,,10 m',NOTHING',[],False,True,True
1622128700900902678,,56,,0,0,'',"""uav16""","""pat""","""f450""","""\x02""",11.000101089477539,102,,,,,"""N/A""",False,1,100.00092315673828,102,10.135948181152344,25.54880142211914,1.3822426795959473,-2.1446292400360107,"""uav16/gps_origin""",,,,9.993776321411133,25.642396926879883,1.300319790840149,-2.1900782585144043,8.424599647521973,3.491945266723633,13.916698455810547,15.356372833251953,4149,99.50090789794922,102,0.5000007152557373,100.50093078613281,100.50093078613281,"""OFFBOARD""",True,True,0.874442994594574,16.283000946044922,-19.56999969482422,-0.877781093120575,0.4370999336242676,2.0934059619903564,2.200000047683716,,"""Garmin_pix""",85.00078582763672,102,,10 m',NOTHING',[],False,True,True
1622128700901261837,,56,,0,0,'',"""uav16""","""pat""","""f450""","""\x02""",11.000101089477539,102,,,,,"""N/A""",False,1,100.00092315673828,102,10.135948181152344,25.54880142211914,1.3822426795959473,-2.1446292400360107,"""uav16/gps_origin""",,,,9.993776321411133,25.642396926879883,1.300319790840149,-2.1900782585144043,8.424599647521973,3.491945266723633,13.916698455810547,15.356372833251953,4149,99.50090789794922,102,0.5000007152557373,100.50093078613281,100.50093078613281,"""OFFBOARD""",True,True,0.874442994594574,16.283000946044922,-19.56999969482422,-0.877781093120575,0.4370999336242676,2.0934059619903564,2.200000047683716,,"""Garmin_pix""",85.00078582763672,102,,10 m',NOTHING',[],False,True,True
1622128701900925916,,57,,0,0,'',"""uav16""","""pat""","""f450""","""\x02""",11.000011444091797,102,,,,,"""N/A""",False,2,100.00012969970703,102,10.091052055358887,25.553285598754883,2.356879472732544,-2.1644458770751953,"""uav16/gps_origin""",,,,9.993776321411133,25.642396926879883,2.275519847869873,-2.1900782585144043,4.0412726402282715,3.4558887481689453,13.91543197631836,15.356372833251953,4149,100.00010681152344,102,0.5000007152557373,100.0000991821289,100.0000991821289,"""OFFBOARD""",True,True,0.8893070220947266,16.283000946044922,-19.56999969482422,-0.877781093120575,0.37958747148513794,2.0200247764587402,2.200000047683716,,"""Garmin_pix""",85.00008392333984,102,,10 m',NOTHING',[],False,True,True
1622128701901275016,,57,,0,0,'',"""uav16""","""pat""","""f450""","""\x02""",11.000011444091797,102,,,,,"""N/A""",False,2,100.00012969970703,102,10.091052055358887,25.553285598754883,2.356879472732544,-2.1644458770751953,"""uav16/gps_origin""",,,,9.993776321411133,25.642396926879883,2.275519847869873,-2.1900782585144043,4.0412726402282715,3.4558887481689453,13.91543197631836,15.356372833251953,4149,100.00010681152344,102,0.5000007152557373,100.0000991821289,100.0000991821289,"""OFFBOARD""",True,True,0.8893070220947266,16.283000946044922,-19.56999969482422,-0.877781093120575,0.37958747148513794,2.0200247764587402,2.200000047683716,,"""Garmin_pix""",85.00008392333984,102,,10 m',NOTHING',[],False,True,True
1622128702900921016,,58,,0,0,'',"""uav16""","""pat""","""f450""","""\x02""",10.500102043151855,102,,,,,"""N/A""",False,3,100.00106048583984,102,10.061747550964355,25.525218963623047,2.713031053543091,-2.175461769104004,"""uav16/gps_origin""",,,,9.993776321411133,25.642396926879883,2.635619640350342,-2.1900782585144043,3.543647289276123,3.498331069946289,13.91543960571289,15.356372833251953,4149,100.00102233886719,102,0.5000098347663879,99.50100708007812,99.50100708007812,"""OFFBOARD""",True,True,0.9099540114402771,16.246000289916992,-17.889999389648438,-1.039482593536377,0.4501878321170807,1.9273585081100464,2.200000047683716,,"""Garmin_pix""",85.0008544921875,102,,10 m',NOTHING',[],True,True,False
1622128703900933168,,59,,0,0,'',"""uav16""","""pat""","""f450""","""\x02""",10.999979972839355,102,,,,,"""N/A""",False,4,99.99998474121094,102,10.065797805786133,25.464134216308594,2.6238229274749756,-2.196760654449463,"""uav16/gps_origin""",,,,9.993776321411133,25.642396926879883,2.635619640350342,-2.1900782585144043,2.8318583965301514,3.432962417602539,13.904041290283203,15.356372833251953,4149,100.0,102,0.5000098347663879,99.9999771118164,99.9999771118164,"""OFFBOARD""",True,True,0.9427289962768555,16.246000289916992,-17.889999389648438,-1.039482593536377,0.4420269727706909,1.9032894372940063,2.200000047683716,,"""Garmin_pix""",84.99998474121094,102,,10 m',NOTHING',[],True,False,True
1622128703901438820,,59,,0,0,'',"""uav16""","""pat""","""f450""","""\x02""",10.999979972839355,102,,,,,"""N/A""",False,4,99.99998474121094,102,10.065797805786133,25.464134216308594,2.6238229274749756,-2.196760654449463,"""uav16/gps_origin""",,,,9.993776321411133,25.642396926879883,2.635619640350342,-2.1900782585144043,2.8318583965301514,3.432962417602539,13.904041290283203,15.356372833251953,4149,100.0,102,0.5000098347663879,99.9999771118164,99.9999771118164,"""OFFBOARD""",True,True,0.9427289962768555,16.246000289916992,-17.889999389648438,-1.039482593536377,0.4420269727706909,1.9032894372940063,2.200000047683716,,"""Garmin_pix""",84.99998474121094,102,,10 m',NOTHING',[],True,False,True
1622128704900951048,,60,,0,0,'',"""uav16""","""pat""","""f450""","""\x02""",10.999878883361816,102,,,,,"""N/A""",False,5,99.99896240234375,102,10.068498611450195,25.40154457092285,2.5896332263946533,-2.198910713195801,"""uav16/gps_origin""",,,,9.993776321411133,25.642396926879883,2.635619640350342,-2.1900782585144043,8.428445816040039,3.348494529724121,13.917011260986328,15.356372833251953,4149,99.99898529052734,102,0.4999997317790985,100.49897766113281,100.49897766113281,"""OFFBOARD""",True,True,0.9593309760093689,16.204999923706055,-20.420000076293945,-1.2232162952423096,0.4498520493507385,1.9381791353225708,2.200000047683716,,"""Garmin_pix""",84.99913787841797,102,,10 m',NOTHING',[],True,False,True
1622128705900947598,,61,,0,0,'',"""uav16""","""pat""","""f450""","""\x02""",10.49998950958252,102,,,,,"""N/A""",False,6,99.99991607666016,102,10.069588661193848,25.474870681762695,2.610797166824341,-2.198603391647339,"""uav16/gps_origin""",,,,9.993776321411133,25.642396926879883,2.635619640350342,-2.1900782585144043,2.821869373321533,3.397602081298828,13.918998718261719,15.356372833251953,4149,99.9999008178711,102,0.4999997317790985,99.99990844726562,99.99990844726562,"""OFFBOARD""",True,True,0.9717869758605957,16.204999923706055,-20.420000076293945,-1.2232162952423096,0.44362330436706543,1.9778956174850464,2.200000047683716,,"""Garmin_pix""",85.49993133544922,102,,10 m',NOTHING',[],True,False,True
1622128705901315014,,61,,0,0,'',"""uav16""","""pat""","""f450""","""\x02""",10.49998950958252,102,,,,,"""N/A""",False,6,99.99991607666016,102,10.069588661193848,25.474870681762695,2.610797166824341,-2.198603391647339,"""uav16/gps_origin""",,,,9.993776321411133,25.642396926879883,2.635619640350342,-2.1900782585144043,2.821869373321533,3.397602081298828,13.918998718261719,15.356372833251953,4149,99.9999008178711,102,0.4999997317790985,99.99990844726562,99.99990844726562,"""OFFBOARD""",True,True,0.9717869758605957,16.204999923706055,-20.420000076293945,-1.2232162952423096,0.44362330436706543,1.9778956174850464,2.200000047683716,,"""Garmin_pix""",85.49993133544922,102,,10 m',NOTHING',[],True,False,True
1622128706900930730,,62,,0,0,'',"""uav16""","""pat""","""f450""","""\x02""",11.000004768371582,102,,,,,"""N/A""",False,7,100.0000228881836,102,10.014490127563477,25.481157302856445,2.6233551502227783,-2.1879396438598633,"""uav16/gps_origin""",,,,9.993776321411133,25.642396926879883,2.635619640350342,-2.1900782585144043,3.3391916751861572,3.3981218338012695,13.91910171508789,15.356372833251953,4149,100.00004577636719,102,0.5000011920928955,100.00004577636719,100.00004577636719,"""OFFBOARD""",True,True,0.9764909744262695,16.18899917602539,-19.709999084472656,-1.400571346282959,0.4591630697250366,1.9943431615829468,2.200000047683716,,"""Garmin_pix""",85.50003814697266,102,,10 m',NOTHING',[],True,False,True
1622128707900924274,,63,,0,0,'',"""uav16""","""pat""","""f450""","""\x02""",11.000003814697266,102,,,,,"""N/A""",False,8,100.00003051757812,102,10.06112289428711,25.464807510375977,2.6301989555358887,-2.1572976112365723,"""uav16/gps_origin""",,,,9.993776321411133,25.642396926879883,2.635619640350342,-2.1900782585144043,2.819383144378662,3.416234016418457,13.920246124267578,15.356372833251953,4149,100.00003051757812,102,0.5000011920928955,100.00003051757812,100.00003051757812,"""OFFBOARD""",True,True,0.9726026654243469,16.18899917602539,-19.709999084472656,-1.400571346282959,0.44649943709373474,2.0024032592773438,2.200000047683716,,"""Garmin_pix""",85.00003051757812,102,,10 m',NOTHING',[],True,False,True
1622128707901271713,,63,,0,0,'',"""uav16""","""pat""","""f450""","""\x02""",11.000003814697266,102,,,,,"""N/A""",False,8,100.00003051757812,102,10.06112289428711,25.464807510375977,2.6301989555358887,-2.1572976112365723,"""uav16/gps_origin""",,,,9.993776321411133,25.642396926879883,2.635619640350342,-2.1900782585144043,2.819383144378662,3.416234016418457,13.920246124267578,15.356372833251953,4149,100.00003051757812,102,0.5000011920928955,100.00003051757812,100.00003051757812,"""OFFBOARD""",True,True,0.9726026654243469,16.18899917602539,-19.709999084472656,-1.400571346282959,0.44649943709373474,2.0024032592773438,2.200000047683716,,"""Garmin_pix""",85.00003051757812,102,,10 m',NOTHING',[],True,False,True
1622128708900925165,,64,,0,0,'',"""uav16""","""pat""","""f450""","""\x02""",10.999977111816406,102,,,,,"""N/A""",False,9,99.99982452392578,102,9.990400314331055,25.4361572265625,2.6350107192993164,-2.1664633750915527,"""uav16/gps_origin""",,,,9.993776321411133,25.642396926879883,2.635619640350342,-2.1900782585144043,3.08370041847229,3.417241096496582,13.920494079589844,15.356372833251953,4149,99.99980163574219,102,0.4999987781047821,99.99979400634766,99.99979400634766,"""OFFBOARD""",True,True,0.9597690105438232,16.167999267578125,-19.209999084472656,-1.5732817649841309,0.4459068179130554,2.0050575733184814,2.200000047683716,,"""Garmin_pix""",84.99981689453125,102,,10 m',NOTHING',[],True,False,True
1622128709900946748,,65,,0,0,'',"""uav16""","""pat""","""f450""","""\x02""",10.999999046325684,102,,,,,"""N/A""",False,10,100.0,102,10.06845474243164,25.494976043701172,2.646857738494873,-2.219364643096924,"""uav16/gps_origin""",,,,9.993776321411133,25.642396926879883,2.635619640350342,-2.1900782585144043,2.821869373321533,3.4193782806396484,13.92116928100586,15.356372833251953,4149,99.49999237060547,102,0.4999987781047821,100.0,100.0,"""OFFBOARD""",True,True,0.9431679844856262,16.167999267578125,-19.209999084472656,-1.5732817649841309,0.4426240622997284,1.9992209672927856,2.200000047683716,,"""Garmin_pix""",84.99998474121094,102,,10 m',NOTHING',[],True,False,True
1622128709901329954,,65,,0,0,'',"""uav16""","""pat""","""f450""","""\x02""",10.999999046325684,102,,,,,"""N/A""",False,10,100.0,102,10.06845474243164,25.494976043701172,2.646857738494873,-2.219364643096924,"""uav16/gps_origin""",,,,9.993776321411133,25.642396926879883,2.635619640350342,-2.1900782585144043,2.821869373321533,3.4193782806396484,13.92116928100586,15.356372833251953,4149,99.49999237060547,102,0.4999987781047821,100.0,100.0,"""OFFBOARD""",True,True,0.9431679844856262,16.167999267578125,-19.209999084472656,-1.5732817649841309,0.4426240622997284,1.9992209672927856,2.200000047683716,,"""Garmin_pix""",84.99998474121094,102,,10 m',NOTHING',[],True,False,True
1622128710900948348,,66,,0,0,'',"""uav16""","""pat""","""f450""","""\x02""",11.000011444091797,102,,,,,"""N/A""",False,11,100.00009155273438,102,10.067020416259766,25.511716842651367,2.6299877166748047,-2.184452772140503,"""uav16/gps_origin""",,,,9.993776321411133,25.642396926879883,2.635619640350342,-2.1900782585144043,3.2599117755889893,3.4333410263061523,13.914894104003906,15.356372833251953,4149,99.50009155273438,102,0.49999988079071045,100.0000991821289,100.0000991821289,"""OFFBOARD""",True,True,0.9555230140686035,16.150999069213867,-20.280000686645508,-1.7549679279327393,0.4564756751060486,1.9923583269119263,2.200000047683716,,"""Garmin_pix""",85.00009155273438,102,,10 m',NOTHING',[],True,False,True
1622128710901279941,,66,,0,0,'',"""uav16""","""pat""","""f450""","""\x02""",11.000011444091797,102,,,,,"""N/A""",False,11,100.00009155273438,102,10.067020416259766,25.511716842651367,2.6299877166748047,-2.184452772140503,"""uav16/gps_origin""",,,,9.993776321411133,25.642396926879883,2.635619640350342,-2.1900782585144043,3.2599117755889893,3.4333410263061523,13.914894104003906,15.356372833251953,4149,99.50009155273438,102,0.49999988079071045,100.0000991821289,100.0000991821289,"""OFFBOARD""",True,True,0.9555230140686035,16.150999069213867,-20.280000686645508,-1.7549679279327393,0.4564756751060486,1.9923583269119263,2.200000047683716,,"""Garmin_pix""",85.00009155273438,102,,10 m',NOTHING',[],True,False,True
1622128711900947489,,67,,0,0,'',"""uav16""","""pat""","""f450""","""\x02""",11.000011444091797,102,,,,,"""N/A""",False,12,100.00009155273438,102,10.029788970947266,25.495502471923828,2.6409127712249756,-2.1942858695983887,"""uav16/gps_origin""",,,,9.993776321411133,25.642396926879883,2.635619640350342,-2.1900782585144043,2.819383144378662,3.4095163345336914,13.914283752441406,15.356372833251953,4149,100.00009155273438,102,0.49999988079071045,100.00009155273438,100.00009155273438,"""OFFBOARD""",True,True,0.9664160013198853,16.150999069213867,-20.280000686645508,-1.7549679279327393,0.4710021913051605,1.9881463050842285,2.200000047683716,,"""Garmin_pix""",85.00009155273438,102,,10 m',NOTHING',[],True,False,True
1622128712900928679,,68,,0,0,'',"""uav16""","""pat""","""f450""","""\x02""",11.000000953674316,102,,,,,"""N/A""",False,13,100.00000762939453,102,10.035181999206543,25.510663986206055,2.648207664489746,-2.202303171157837,"""uav16/gps_origin""",,,,9.993776321411133,25.642396926879883,2.635619640350342,-2.1900782585144043,2.7360987663269043,3.4084367752075195,13.914447784423828,15.356372833251953,4149,100.0,102,0.49999892711639404,100.00000762939453,100.00000762939453,"""OFFBOARD""",True,True,0.9656456708908081,16.128000259399414,-20.309999465942383,-1.9369360208511353,0.4535726010799408,1.9793034791946411,2.200000047683716,,"""Garmin_pix""",85.00000762939453,102,,10 m',NOTHING',[],True,False,True
1622128712901305353,,68,,0,0,'',"""uav16""","""pat""","""f450""","""\x02""",11.000000953674316,102,,,,,"""N/A""",False,13,100.00000762939453,102,10.035181999206543,25.510663986206055,2.648207664489746,-2.202303171157837,"""uav16/gps_origin""",,,,9.993776321411133,25.642396926879883,2.635619640350342,-2.1900782585144043,2.7360987663269043,3.4084367752075195,13.914447784423828,15.356372833251953,4149,100.0,102,0.49999892711639404,100.00000762939453,100.00000762939453,"""OFFBOARD""",True,True,0.9656456708908081,16.128000259399414,-20.309999465942383,-1.9369360208511353,0.4535726010799408,1.9793034791946411,2.200000047683716,,"""Garmin_pix""",85.00000762939453,102,,10 m',NOTHING',[],True,False,True
1622128713900927404,,69,,0,0,'',"""uav16""","""pat""","""f450""","""\x02""",10.99999713897705,102,,,,,"""N/A""",False,14,99.9999771118164,102,10.054443359375,25.47435760498047,2.6492128372192383,-2.16566801071167,"""uav16/gps_origin""",,,,9.993776321411133,25.642396926879883,2.635619640350342,-2.1900782585144043,3.0809860229492188,3.395880699157715,13.916679382324219,15.356372833251953,4148,99.99998474121094,102,0.49999892711639404,99.4999771118164,99.4999771118164,"""OFFBOARD""",True,True,0.9699580073356628,16.128000259399414,-20.309999465942383,-1.9369360208511353,0.45734140276908875,1.9643521308898926,2.200000047683716,,"""Garmin_pix""",84.99996948242188,102,,10 m',NOTHING',[],True,False,True
1622128714900931615,,70,,0,0,'',"""uav16""","""pat""","""f450""","""\x02""",11.000005722045898,102,,,,,"""N/A""",False,15,100.00005340576172,102,9.996757507324219,25.503625869750977,2.6570558547973633,-2.171982765197754,"""uav16/gps_origin""",,,,9.993776321411133,25.642396926879883,2.635619640350342,-2.1900782585144043,2.907489061355591,3.4220495223999023,13.91848373413086,15.356372833251953,4148,100.00005340576172,102,0.4999997019767761,100.00005340576172,100.00005340576172,"""OFFBOARD""",True,True,0.9735119938850403,16.117000579833984,-20.34000015258789,-2.1189610958099365,0.44099661707878113,1.9476871490478516,2.200000047683716,,"""Garmin_pix""",85.50004577636719,102,,10 m',NOTHING',[],True,False,True
1622128714901272507,,70,,0,0,'',"""uav16""","""pat""","""f450""","""\x02""",11.000005722045898,102,,,,,"""N/A""",False,15,100.00005340576172,102,9.996757507324219,25.503625869750977,2.6570558547973633,-2.171982765197754,"""uav16/gps_origin""",,,,9.993776321411133,25.642396926879883,2.635619640350342,-2.1900782585144043,2.907489061355591,3.4220495223999023,13.91848373413086,15.356372833251953,4148,100.00005340576172,102,0.4999997019767761,100.00005340576172,100.00005340576172,"""OFFBOARD""",True,True,0.9735119938850403,16.117000579833984,-20.34000015258789,-2.1189610958099365,0.44099661707878113,1.9476871490478516,2.200000047683716,,"""Garmin_pix""",85.50004577636719,102,,10 m',NOTHING',[],True,False,True
1622128715900948918,,71,,0,0,'',"""uav16""","""pat""","""f450""","""\x02""",10.99999713897705,102,,,,,"""N/A""",False,16,99.9999771118164,102,9.986954689025879,25.53850555419922,2.6611063480377197,-2.163217067718506,"""uav16/gps_origin""",,,,9.993776321411133,25.642396926879883,2.635619640350342,-2.1900782585144043,2.907489061355591,3.4143733978271484,13.91873550415039,15.356372833251953,4148,99.9999771118164,102,0.4999997019767761,100.4999771118164,100.4999771118164,"""OFFBOARD""",True,True,0.9700873494148254,16.117000579833984,-20.34000015258789,-2.1189610958099365,0.44583120942115784,1.9219260215759277,2.200000047683716,,"""Garmin_pix""",85.4999771118164,102,,10 m',NOTHING',[],True,False,True
1622128716900945270,,72,,0,0,'',"""uav16""","""pat""","""f450""","""\x02""",10.99999713897705,102,,,,,"""N/A""",False,17,100.0,102,10.079785346984863,25.58740234375,2.6395509243011475,-2.174182176589966,"""uav16/gps_origin""",,,,9.993776321411133,25.642396926879883,2.635619640350342,-2.1900782585144043,2.9982364177703857,3.363006591796875,13.918643951416016,15.356372833251953,4148,100.0,102,0.4999997019767761,99.99999237060547,99.99999237060547,"""OFFBOARD""",True,True,0.9458510279655457,16.089000701904297,-20.059999465942383,-2.2984325885772705,0.4472269117832184,1.9078384637832642,2.200000047683716,,"""Garmin_pix""",84.9999771118164,102,,10 m',NOTHING',[],True,False,True
1622128716901284283,,72,,0,0,'',"""uav16""","""pat""","""f450""","""\x02""",10.99999713897705,102,,,,,"""N/A""",False,17,100.0,102,10.079785346984863,25.58740234375,2.6395509243011475,-2.174182176589966,"""uav16/gps_origin""",,,,9.993776321411133,25.642396926879883,2.635619640350342,-2.1900782585144043,2.9982364177703857,3.363006591796875,13.918643951416016,15.356372833251953,4148,100.0,102,0.4999997019767761,99.99999237060547,99.99999237060547,"""OFFBOARD""",True,True,0.9458510279655457,16.089000701904297,-20.059999465942383,-2.2984325885772705,0.4472269117832184,1.9078384637832642,2.200000047683716,,"""Garmin_pix""",84.9999771118164,102,,10 m',NOTHING',[],True,False,True
1622128717900944841,,73,,0,0,'',"""uav16""","""pat""","""f450""","""\x02""",10.999995231628418,102,,,,,"""N/A""",False,18,99.99996948242188,102,10.023983001708984,25.59644889831543,2.6399574279785156,-2.1517484188079834,"""uav16/gps_origin""",,,,9.993776321411133,25.642396926879883,2.635619640350342,-2.1900782585144043,2.9955947399139404,3.3929128646850586,13.91879653930664,15.356372833251953,4148,99.99995422363281,102,0.4999997019767761,99.99995422363281,99.99995422363281,"""OFFBOARD""",True,True,0.9272753596305847,16.089000701904297,-20.059999465942383,-2.2984325885772705,0.4566994607448578,1.8983826637268066,2.200000047683716,,"""Garmin_pix""",84.9999771118164,102,,10 m',NOTHING',[],True,False,True
1622128717901283367,,73,,0,0,'',"""uav16""","""pat""","""f450""","""\x02""",10.999995231628418,102,,,,,"""N/A""",False,18,99.99996948242188,102,10.023983001708984,25.59644889831543,2.6399574279785156,-2.1517484188079834,"""uav16/gps_origin""",,,,9.993776321411133,25.642396926879883,2.635619640350342,-2.1900782585144043,2.9955947399139404,3.3929128646850586,13.91879653930664,15.356372833251953,4148,99.99995422363281,102,0.4999997019767761,99.99995422363281,99.99995422363281,"""OFFBOARD""",True,True,0.9272753596305847,16.089000701904297,-20.059999465942383,-2.2984325885772705,0.4566994607448578,1.8983826637268066,2.200000047683716,,"""Garmin_pix""",84.9999771118164,102,,10 m',NOTHING',[],True,False,True
1622128718900927748,,74,,0,0,'',"""uav16""","""pat""","""f450""","""\x02""",11.000000953674316,102,,,,,"""N/A""",False,19,100.0,102,9.994032859802246,25.636329650878906,2.649418354034424,-2.184880018234253,"""uav16/gps_origin""",,,,9.993776321411133,25.642396926879883,2.635619640350342,-2.1900782585144043,3.4180543422698975,3.4238786697387695,13.91964340209961,15.356372833251953,4148,99.49999237060547,102,0.5000001788139343,99.99998474121094,99.99998474121094,"""OFFBOARD""",True,True,0.9122846722602844,16.084999084472656,-21.940000534057617,-2.494385242462158,0.4440852999687195,1.8925236463546753,2.200000047683716,,"""Garmin_pix""",85.0,102,,10 m',NOTHING',[],True,False,True
1622128719900924519,,75,,0,0,'',"""uav16""","""pat""","""f450""","""\x02""",11.000012397766113,102,,,,,"""N/A""",False,20,100.00010681152344,102,10.01586627960205,25.673704147338867,2.6479861736297607,-2.176501750946045,"""uav16/gps_origin""",,,,9.993776321411133,25.642396926879883,2.635619640350342,-2.1900782585144043,8.39567756652832,3.4224328994750977,13.918045043945312,15.356372833251953,4148,99.50011444091797,102,0.5000001788139343,100.00011444091797,100.00011444091797,"""OFFBOARD""",True,True,0.894690990447998,16.084999084472656,-21.940000534057617,-2.494385242462158,0.4493958353996277,1.8815386295318604,2.200000047683716,,"""Garmin_pix""",85.0000991821289,102,,10 m',NOTHING',[],True,False,True
1622128719901275065,,75,,0,0,'',"""uav16""","""pat""","""f450""","""\x02""",11.000012397766113,102,,,,,"""N/A""",False,20,100.00010681152344,102,10.01586627960205,25.673704147338867,2.6479861736297607,-2.176501750946045,"""uav16/gps_origin""",,,,9.993776321411133,25.642396926879883,2.635619640350342,-2.1900782585144043,8.39567756652832,3.4224328994750977,13.918045043945312,15.356372833251953,4148,99.50011444091797,102,0.5000001788139343,100.00011444091797,100.00011444091797,"""OFFBOARD""",True,True,0.894690990447998,16.084999084472656,-21.940000534057617,-2.494385242462158,0.4493958353996277,1.8815386295318604,2.200000047683716,,"""Garmin_pix""",85.0000991821289,102,,10 m',NOTHING',[],True,False,True
1622128720900925066,,76,,0,0,'',"""uav16""","""pat""","""f450""","""\x02""",10.999995231628418,102,,,,,"""N/A""",False,21,99.99996185302734,102,10.004599571228027,25.62711524963379,2.642632246017456,-2.218994379043579,"""uav16/gps_origin""",,,,9.993776321411133,25.642396926879883,2.635619640350342,-2.1900782585144043,16.691957473754883,3.4091053009033203,13.9117431640625,15.356372833251953,4148,99.99996185302734,102,0.49999862909317017,99.99996948242188,99.99996948242188,"""OFFBOARD""",True,True,0.8802890181541443,16.06800079345703,-20.1299991607666,-2.6740691661834717,0.44811081886291504,1.8740088939666748,2.200000047683716,,"""Garmin_pix""",84.99996185302734,102,,10 m',NOTHING',[],True,False,True
1622128720901286748,,76,,0,0,'',"""uav16""","""pat""","""f450""","""\x02""",10.999995231628418,102,,,,,"""N/A""",False,21,99.99996185302734,102,10.004599571228027,25.62711524963379,2.642632246017456,-2.218994379043579,"""uav16/gps_origin""",,,,9.993776321411133,25.642396926879883,2.635619640350342,-2.1900782585144043,16.691957473754883,3.4091053009033203,13.9117431640625,15.356372833251953,4148,99.99996185302734,102,0.49999862909317017,99.99996948242188,99.99996948242188,"""OFFBOARD""",True,True,0.8802890181541443,16.06800079345703,-20.1299991607666,-2.6740691661834717,0.44811081886291504,1.8740088939666748,2.200000047683716,,"""Garmin_pix""",84.99996185302734,102,,10 m',NOTHING',[],True,False,True
1622128721900891349,,77,,0,0,'',"""uav16""","""pat""","""f450""","""\x02""",10.500219345092773,102,,,,,"""N/A""",False,22,100.00223541259766,102,10.063091278076172,25.630571365356445,2.6346259117126465,-2.2428088188171387,"""uav16/gps_origin""",,,,9.993776321411133,25.642396926879883,2.635619640350342,-2.1900782585144043,13.249211311340332,3.359429359436035,13.91217041015625,15.356372833251953,4148,100.0022201538086,102,0.49999862909317017,100.00221252441406,100.00221252441406,"""OFFBOARD""",True,True,0.8685770034790039,16.06800079345703,-20.1299991607666,-2.6740691661834717,0.4581448435783386,1.8714547157287598,2.200000047683716,,"""Garmin_pix""",85.00187683105469,102,,10 m',NOTHING',[],True,False,True
1622128722900923395,,78,,0,0,'',"""uav16""","""pat""","""f450""","""\x02""",10.499981880187988,102,,,,,"""N/A""",False,23,100.00003814697266,102,10.074114799499512,25.686790466308594,2.6289639472961426,-2.2392072677612305,"""uav16/gps_origin""",,,,9.993776321411133,25.642396926879883,2.635619640350342,-2.1900782585144043,8.637873649597168,3.3720130920410156,13.912406921386719,15.356372833251953,4148,100.00003814697266,102,0.4999769926071167,100.00003814697266,100.00003814697266,"""OFFBOARD""",True,True,0.8617843389511108,16.08300018310547,-18.84000015258789,-2.8424816131591797,0.4521903395652771,1.8746299743652344,2.200000047683716,,"""Garmin_pix""",85.50001525878906,102,,10 m',NOTHING',[],True,False,True
1622128722901281608,,78,,0,0,'',"""uav16""","""pat""","""f450""","""\x02""",10.499981880187988,102,,,,,"""N/A""",False,23,100.00003814697266,102,10.074114799499512,25.686790466308594,2.6289639472961426,-2.2392072677612305,"""uav16/gps_origin""",,,,9.993776321411133,25.642396926879883,2.635619640350342,-2.1900782585144043,8.637873649597168,3.3720130920410156,13.912406921386719,15.356372833251953,4148,100.00003814697266,102,0.4999769926071167,100.00003814697266,100.00003814697266,"""OFFBOARD""",True,True,0.8617843389511108,16.08300018310547,-18.84000015258789,-2.8424816131591797,0.4521903395652771,1.8746299743652344,2.200000047683716,,"""Garmin_pix""",85.50001525878906,102,,10 m',NOTHING',[],True,False,True
1622128723900918815,,79,,0,0,'',"""uav16""","""pat""","""f450""","""\x02""",10.999750137329102,102,,,,,"""N/A""",False,24,99.99771118164062,102,9.98963451385498,25.72964096069336,2.631195306777954,-2.2385106086730957,"""uav16/gps_origin""",,,,9.993776321411133,25.642396926879883,2.635619640350342,-2.1900782585144043,6.700593948364258,3.371767997741699,13.913116455078125,15.356372833251953,4148,99.99771118164062,102,0.4999769926071167,99.99772644042969,99.99772644042969,"""OFFBOARD""",True,True,0.8617843389511108,16.08300018310547,-18.84000015258789,-2.8424816131591797,0.4575371742248535,1.878559947013855,2.200000047683716,,"""Garmin_pix""",85.498046875,102,,10 m',NOTHING',[],True,False,True
1622128724900940165,,80,,0,0,'',"""uav16""","""pat""","""f450""","""\x02""",10.999992370605469,102,,,,,"""N/A""",False,25,99.99995422363281,102,9.973760604858398,25.744871139526367,2.6388778686523438,-2.3464293479919434,"""uav16/gps_origin""",,,,9.993776321411133,25.642396926879883,2.635619640350342,-2.1900782585144043,5.086206912994385,3.3966102600097656,13.916091918945312,15.356372833251953,4148,99.49993133544922,102,0.4999990165233612,99.99993133544922,99.99993133544922,"""OFFBOARD""",True,True,0.8613446950912476,16.05299949645996,-20.399999618530273,-3.0244064331054688,0.4444170296192169,1.8806546926498413,2.200000047683716,,"""Garmin_pix""",84.99994659423828,102,,10 m',NOTHING',[],True,False,True
1622128724901354187,,80,,0,0,'',"""uav16""","""pat""","""f450""","""\x02""",10.999992370605469,102,,,,,"""N/A""",False,25,99.99995422363281,102,9.973760604858398,25.744871139526367,2.6388778686523438,-2.3464293479919434,"""uav16/gps_origin""",,,,9.993776321411133,25.642396926879883,2.635619640350342,-2.1900782585144043,5.086206912994385,3.3966102600097656,13.916091918945312,15.356372833251953,4148,99.49993133544922,102,0.4999990165233612,99.99993133544922,99.99993133544922,"""OFFBOARD""",True,True,0.8613446950912476,16.05299949645996,-20.399999618530273,-3.0244064331054688,0.4444170296192169,1.8806546926498413,2.200000047683716,,"""Garmin_pix""",84.99994659423828,102,,10 m',NOTHING',[],True,False,True
1622128725900929754,,81,,0,0,'',"""uav16""","""pat""","""f450""","""\x02""",10.999994277954102,102,,,,,"""N/A""",False,26,99.99996948242188,102,10.087105751037598,25.700685501098633,2.624484062194824,-2.2684340476989746,"""uav16/gps_origin""",,,,9.993776321411133,25.642396926879883,2.635619640350342,-2.1900782585144043,3.3362598419189453,3.403379440307617,13.916637420654297,15.356372833251953,4148,99.49996185302734,102,0.4999990165233612,99.99995422363281,99.99995422363281,"""OFFBOARD""",True,True,0.8634596467018127,16.05299949645996,-20.399999618530273,-3.0244064331054688,0.46336430311203003,1.8786327838897705,2.200000047683716,,"""Garmin_pix""",84.99995422363281,102,,10 m',NOTHING',[],True,False,True
1622128726900920728,,82,,0,0,'',"""uav16""","""pat""","""f450""","""\x02""",11.00001049041748,102,,,,,"""N/A""",False,27,100.00007629394531,102,10.097175598144531,25.55986976623535,2.6163735389709473,-2.07098126411438,"""uav16/gps_origin""",,,,9.993776321411133,25.642396926879883,2.635619640350342,-2.1900782585144043,2.992957830429077,3.397250175476074,13.917304992675781,15.356372833251953,4148,100.50009155273438,102,0.5000004172325134,100.00009155273438,100.00009155273438,"""OFFBOARD""",True,True,0.8618833422660828,16.047000885009766,-19.420000076293945,-3.1974434852600098,0.4467625021934509,1.8998663425445557,2.200000047683716,,"""Garmin_pix""",85.00007629394531,102,,10 m',NOTHING',[],True,False,True
1622128726901421039,,82,,0,0,'',"""uav16""","""pat""","""f450""","""\x02""",11.00001049041748,102,,,,,"""N/A""",False,27,100.00007629394531,102,10.097175598144531,25.55986976623535,2.6163735389709473,-2.07098126411438,"""uav16/gps_origin""",,,,9.993776321411133,25.642396926879883,2.635619640350342,-2.1900782585144043,2.992957830429077,3.397250175476074,13.917304992675781,15.356372833251953,4148,100.50009155273438,102,0.5000004172325134,100.00009155273438,100.00009155273438,"""OFFBOARD""",True,True,0.8618833422660828,16.047000885009766,-19.420000076293945,-3.1974434852600098,0.4467625021934509,1.8998663425445557,2.200000047683716,,"""Garmin_pix""",85.00007629394531,102,,10 m',NOTHING',[],True,False,True
1622128727900983921,,83,,0,0,'',"""uav16""","""pat""","""f450""","""\x02""",10.999918937683105,102,,,,,"""N/A""",False,28,99.99925231933594,102,9.899621963500977,25.622194290161133,2.6291298866271973,-2.1162633895874023,"""uav16/gps_origin""",,,,9.993776321411133,25.642396926879883,2.635619640350342,-2.1900782585144043,3.3362598419189453,3.382105827331543,13.917060852050781,15.356372833251953,4148,99.99925231933594,102,0.5000004172325134,99.99925994873047,99.99925994873047,"""OFFBOARD""",True,True,0.8624380230903625,16.047000885009766,-19.420000076293945,-3.1974434852600098,0.4525998830795288,1.9135617017745972,2.200000047683716,,"""Garmin_pix""",84.99937438964844,102,,10 m',NOTHING',[],True,False,True
1622128727901374896,,83,,0,0,'',"""uav16""","""pat""","""f450""","""\x02""",10.999918937683105,102,,,,,"""N/A""",False,28,99.99925231933594,102,9.899621963500977,25.622194290161133,2.6291298866271973,-2.1162633895874023,"""uav16/gps_origin""",,,,9.993776321411133,25.642396926879883,2.635619640350342,-2.1900782585144043,3.3362598419189453,3.382105827331543,13.917060852050781,15.356372833251953,4148,99.99925231933594,102,0.5000004172325134,99.99925994873047,99.99925994873047,"""OFFBOARD""",True,True,0.8624380230903625,16.047000885009766,-19.420000076293945,-3.1974434852600098,0.4525998830795288,1.9135617017745972,2.200000047683716,,"""Garmin_pix""",84.99937438964844,102,,10 m',NOTHING',[],True,False,True
1622128728900934446,,84,,0,0,'',"""uav16""","""pat""","""f450""","""\x02""",10.999994277954102,102,,,,,"""N/A""",False,29,99.99995422363281,102,9.941937446594238,25.68939971923828,2.6194870471954346,-2.2005233764648438,"""uav16/gps_origin""",,,,9.993776321411133,25.642396926879883,2.635619640350342,-2.1900782585144043,2.990325450897217,3.4278860092163086,13.917041778564453,15.356372833251953,4148,99.49996185302734,102,0.5000073313713074,99.99994659423828,99.99994659423828,"""OFFBOARD""",True,True,0.869271993637085,16.045000076293945,-19.530000686645508,-3.371610641479492,0.45734405517578125,1.9281097650527954,2.200000047683716,,"""Garmin_pix""",84.99996185302734,102,,10 m',NOTHING',[],True,False,True
1622128729900932921,,85,,0,0,'',"""uav16""","""pat""","""f450""","""\x02""",11.000082969665527,102,,,,,"""N/A""",False,30,100.00077819824219,102,10.068243026733398,25.687929153442383,2.6347007751464844,-2.207656145095825,"""uav16/gps_origin""",,,,9.993776321411133,25.642396926879883,2.635619640350342,-2.1900782585144043,2.7360987663269043,3.4181079864501953,13.916038513183594,15.356372833251953,4148,100.00076293945312,102,0.5000073313713074,100.0007553100586,100.0007553100586,"""OFFBOARD""",True,True,0.8810173273086548,16.045000076293945,-19.530000686645508,-3.371610641479492,0.4551045596599579,1.9359674453735352,2.200000047683716,,"""Garmin_pix""",85.00064086914062,102,,10 m',NOTHING',[],True,False,True
1622128729901302095,,85,,0,0,'',"""uav16""","""pat""","""f450""","""\x02""",11.000082969665527,102,,,,,"""N/A""",False,30,100.00077819824219,102,10.068243026733398,25.687929153442383,2.6347007751464844,-2.207656145095825,"""uav16/gps_origin""",,,,9.993776321411133,25.642396926879883,2.635619640350342,-2.1900782585144043,2.7360987663269043,3.4181079864501953,13.916038513183594,15.356372833251953,4148,100.00076293945312,102,0.5000073313713074,100.0007553100586,100.0007553100586,"""OFFBOARD""",True,True,0.8810173273086548,16.045000076293945,-19.530000686645508,-3.371610641479492,0.4551045596599579,1.9359674453735352,2.200000047683716,,"""Garmin_pix""",85.00064086914062,102,,10 m',NOTHING',[],True,False,True
1622128730900951742,,86,,0,0,'',"""uav16""","""pat""","""f450""","""\x02""",10.999993324279785,102,,,,,"""N/A""",False,31,99.99994659423828,102,10.079224586486816,25.671720504760742,2.6299049854278564,-2.2421064376831055,"""uav16/gps_origin""",,,,9.993776321411133,25.642396926879883,2.635619640350342,-2.1900782585144043,3.527336835861206,3.3655261993408203,13.912788391113281,15.356372833251953,4148,99.99993896484375,102,0.49999919533729553,99.99993896484375,99.99993896484375,"""OFFBOARD""",True,True,0.8932729959487915,16.038999557495117,-19.8799991607666,-3.548833131790161,0.45894405245780945,1.9390136003494263,2.200000047683716,,"""Garmin_pix""",84.99994659423828,102,,10 m',NOTHING',[],True,False,True
1622128730901308080,,86,,0,0,'',"""uav16""","""pat""","""f450""","""\x02""",10.999993324279785,102,,,,,"""N/A""",False,31,99.99994659423828,102,10.079224586486816,25.671720504760742,2.6299049854278564,-2.2421064376831055,"""uav16/gps_origin""",,,,9.993776321411133,25.642396926879883,2.635619640350342,-2.1900782585144043,3.527336835861206,3.3655261993408203,13.912788391113281,15.356372833251953,4148,99.99993896484375,102,0.49999919533729553,99.99993896484375,99.99993896484375,"""OFFBOARD""",True,True,0.8932729959487915,16.038999557495117,-19.8799991607666,-3.548833131790161,0.45894405245780945,1.9390136003494263,2.200000047683716,,"""Garmin_pix""",84.99994659423828,102,,10 m',NOTHING',[],True,False,True
1622128731900952798,,87,,0,0,'',"""uav16""","""pat""","""f450""","""\x02""",10.999993324279785,102,,,,,"""N/A""",False,32,99.99993133544922,102,10.051392555236816,25.703052520751953,2.6241157054901123,-2.1322402954101562,"""uav16/gps_origin""",,,,9.993776321411133,25.642396926879883,2.635619640350342,-2.1900782585144043,3.84279465675354,3.394291877746582,13.912166595458984,15.356372833251953,4148,99.99993896484375,102,0.49999919533729553,99.99994659423828,99.99994659423828,"""OFFBOARD""",True,True,0.9056159853935242,16.038999557495117,-19.8799991607666,-3.548833131790161,0.4528699219226837,1.951831340789795,2.200000047683716,,"""Garmin_pix""",85.49994659423828,102,,10 m',NOTHING',[],True,False,True
1622128731901344913,,87,,0,0,'',"""uav16""","""pat""","""f450""","""\x02""",10.999993324279785,102,,,,,"""N/A""",False,32,99.99993133544922,102,10.051392555236816,25.703052520751953,2.6241157054901123,-2.1322402954101562,"""uav16/gps_origin""",,,,9.993776321411133,25.642396926879883,2.635619640350342,-2.1900782585144043,3.84279465675354,3.394291877746582,13.912166595458984,15.356372833251953,4148,99.99993896484375,102,0.49999919533729553,99.99994659423828,99.99994659423828,"""OFFBOARD""",True,True,0.9056159853935242,16.038999557495117,-19.8799991607666,-3.548833131790161,0.4528699219226837,1.951831340789795,2.200000047683716,,"""Garmin_pix""",85.49994659423828,102,,10 m',NOTHING',[],True,False,True
1622128732900928523,,88,,0,0,'',"""uav16""","""pat""","""f450""","""\x02""",11.000001907348633,102,,,,,"""N/A""",False,33,100.00001525878906,102,10.006022453308105,25.739912033081055,2.631293773651123,-2.1201114654541016,"""uav16/gps_origin""",,,,9.99377727508545,25.642396926879883,2.635619640350342,-2.1900782585144043,3.2484636306762695,3.4142532348632812,13.911674499511719,15.356372833251953,4148,100.00003051757812,102,0.4999999701976776,100.0000228881836,100.0000228881836,"""OFFBOARD""",True,True,0.913083016872406,16.025999069213867,-20.190000534057617,-3.728402614593506,0.4573729634284973,1.9554301500320435,2.200000047683716,,"""Garmin_pix""",85.50001525878906,102,,10 m',NOTHING',[],True,False,True
1622128733900931406,,89,,0,0,'',"""uav16""","""pat""","""f450""","""\x02""",11.000003814697266,102,,,,,"""N/A""",False,34,100.00003051757812,102,10.211477279663086,25.543712615966797,2.6516342163085938,-2.1406686305999756,"""uav16/gps_origin""",,,,10.212343215942383,25.423500061035156,2.6355583667755127,-2.190031051635742,2.8293545246124268,3.4026689529418945,13.912113189697266,15.356372833251953,4148,99.50003814697266,102,0.4999999701976776,100.00003051757812,100.00003051757812,"""OFFBOARD""",True,True,0.9167813062667847,16.025999069213867,-20.190000534057617,-3.728402614593506,0.45291945338249207,1.9514154195785522,2.200000047683716,,"""Garmin_pix""",85.00003814697266,102,,10 m',NOTHING',[],True,True,True
1622128733901262558,,89,,0,0,'',"""uav16""","""pat""","""f450""","""\x02""",11.000003814697266,102,,,,,"""N/A""",False,34,100.00003051757812,102,10.211477279663086,25.543712615966797,2.6516342163085938,-2.1406686305999756,"""uav16/gps_origin""",,,,10.212343215942383,25.423500061035156,2.6355583667755127,-2.190031051635742,2.8293545246124268,3.4026689529418945,13.912113189697266,15.356372833251953,4148,99.50003814697266,102,0.4999999701976776,100.00003051757812,100.00003051757812,"""OFFBOARD""",True,True,0.9167813062667847,16.025999069213867,-20.190000534057617,-3.728402614593506,0.45291945338249207,1.9514154195785522,2.200000047683716,,"""Garmin_pix""",85.00003814697266,102,,10 m',NOTHING',[],True,True,True
1622128734900925045,,90,,0,0,'',"""uav16""","""pat""","""f450""","""\x02""",11.000012397766113,102,,,,,"""N/A""",False,35,100.0000991821289,102,11.255942344665527,24.735288619995117,2.636949062347412,-2.203294515609741,"""uav16/gps_origin""",,,,11.303647994995117,24.443754196166992,2.6364974975585938,-2.1906559467315674,3.7234041690826416,3.448017120361328,13.915142059326172,15.356372833251953,4148,99.50010681152344,102,0.5000007748603821,100.00011444091797,100.00011444091797,"""OFFBOARD""",True,True,0.9231476783752441,16.01099967956543,-20.469999313354492,-3.9107487201690674,0.4664401710033417,1.9421144723892212,2.200000047683716,,"""Garmin_pix""",85.0000991821289,102,,10 m',NOTHING',[],True,True,True
1622128735900942705,,91,,0,0,'',"""uav16""","""pat""","""f450""","""\x02""",10.999994277954102,102,,,,,"""N/A""",False,36,99.99996185302734,102,12.73784351348877,23.43429946899414,2.611246347427368,-2.201812744140625,"""uav16/gps_origin""",,,,12.92055892944336,23.26032829284668,2.63543701171875,-2.1907455921173096,3.890362501144409,3.377976417541504,13.915973663330078,15.356372833251953,4148,100.49994659423828,102,0.5000007748603821,99.99994659423828,99.99994659423828,"""OFFBOARD""",True,True,0.9341310262680054,16.01099967956543,-20.469999313354492,-3.9107487201690674,0.463005006313324,1.9509363174438477,2.200000047683716,,"""Garmin_pix""",84.99995422363281,102,,10 m',NOTHING',[],True,True,True
1622128735901317738,,91,,0,0,'',"""uav16""","""pat""","""f450""","""\x02""",10.999994277954102,102,,,,,"""N/A""",False,36,99.99996185302734,102,12.73784351348877,23.43429946899414,2.611246347427368,-2.201812744140625,"""uav16/gps_origin""",,,,12.92055892944336,23.26032829284668,2.63543701171875,-2.1907455921173096,3.890362501144409,3.377976417541504,13.915973663330078,15.356372833251953,4148,100.49994659423828,102,0.5000007748603821,99.99994659423828,99.99994659423828,"""OFFBOARD""",True,True,0.9341310262680054,16.01099967956543,-20.469999313354492,-3.9107487201690674,0.463005006313324,1.9509363174438477,2.200000047683716,,"""Garmin_pix""",84.99995422363281,102,,10 m',NOTHING',[],True,True,True
1622128736900935922,,92,,0,0,'',"""uav16""","""pat""","""f450""","""\x02""",10.999992370605469,102,,,,,"""N/A""",False,37,99.99994659423828,102,14.364227294921875,22.21370506286621,2.6212563514709473,-2.1332998275756836,"""uav16/gps_origin""",,,,14.557385444641113,22.11179542541504,2.6336212158203125,-2.1901073455810547,3.4543843269348145,3.3847923278808594,13.916389465332031,15.356372833251953,4148,99.99993896484375,102,0.5000006556510925,99.99993133544922,99.99993133544922,"""OFFBOARD""",True,True,0.9429180026054382,16.010000228881836,-19.65999984741211,-4.085430145263672,0.46421048045158386,1.9719281196594238,2.200000047683716,,"""Garmin_pix""",84.99993896484375,102,,10 m',NOTHING',[],True,True,True
1622128737900934780,,93,,0,0,'',"""uav16""","""pat""","""f450""","""\x02""",11.000003814697266,102,,,,,"""N/A""",False,38,100.00001525878906,102,16.070720672607422,21.169424057006836,2.6341516971588135,-2.1627371311187744,"""uav16/gps_origin""",,,,16.244434356689453,21.035680770874023,2.6347482204437256,-2.190419912338257,3.457446813583374,3.3851442337036133,13.915882110595703,15.356372833251953,4148,99.50003051757812,102,0.5000006556510925,99.50003051757812,99.50003051757812,"""OFFBOARD""",True,True,0.9587426781654358,16.010000228881836,-19.65999984741211,-4.085430145263672,0.45847243070602417,1.9793829917907715,2.200000047683716,,"""Garmin_pix""",85.00003051757812,102,,10 m',NOTHING',[],True,True,True
1622128737901286619,,93,,0,0,'',"""uav16""","""pat""","""f450""","""\x02""",11.000003814697266,102,,,,,"""N/A""",False,38,100.00001525878906,102,16.070720672607422,21.169424057006836,2.6341516971588135,-2.1627371311187744,"""uav16/gps_origin""",,,,16.244434356689453,21.035680770874023,2.6347482204437256,-2.190419912338257,3.457446813583374,3.3851442337036133,13.915882110595703,15.356372833251953,4148,99.50003051757812,102,0.5000006556510925,99.50003051757812,99.50003051757812,"""OFFBOARD""",True,True,0.9587426781654358,16.010000228881836,-19.65999984741211,-4.085430145263672,0.45847243070602417,1.9793829917907715,2.200000047683716,,"""Garmin_pix""",85.00003051757812,102,,10 m',NOTHING',[],True,True,True
1622128738900925193,,94,,0,0,'',"""uav16""","""pat""","""f450""","""\x02""",10.999991416931152,102,,,,,"""N/A""",False,39,99.99994659423828,102,17.764902114868164,20.059764862060547,2.6360297203063965,-2.184156894683838,"""uav16/gps_origin""",,,,17.89706039428711,19.90926742553711,2.634097099304199,-2.190727949142456,3.451327323913574,3.4173240661621094,13.917098999023438,15.356372833251953,4148,99.99993133544922,102,0.4999995529651642,99.99992370605469,99.99992370605469,"""OFFBOARD""",True,True,0.9580519795417786,15.99899959564209,-19.59000015258789,-4.259371757507324,0.4589548408985138,1.9773774147033691,2.200000047683716,,"""Garmin_pix""",84.99993896484375,102,,10 m',NOTHING',[],True,True,True
1622128739900920766,,95,,0,0,'',"""uav16""","""pat""","""f450""","""\x02""",10.500059127807617,102,,,,,"""N/A""",False,40,100.0006103515625,102,19.41122055053711,18.91071128845215,2.639321804046631,-2.1920249462127686,"""uav16/gps_origin""",,,,19.525222778320312,18.748640060424805,2.6350343227386475,-2.191049098968506,3.3658103942871094,3.3874073028564453,13.916954040527344,15.356372833251953,4148,100.00059509277344,102,0.4999995529651642,100.50059509277344,100.50059509277344,"""OFFBOARD""",True,True,0.9643120169639587,15.99899959564209,-19.59000015258789,-4.259371757507324,0.46332916617393494,1.968875527381897,2.200000047683716,,"""Garmin_pix""",85.00050354003906,102,,10 m',NOTHING',[],True,True,True
1622128739901261032,,95,,0,0,'',"""uav16""","""pat""","""f450""","""\x02""",10.500059127807617,102,,,,,"""N/A""",False,40,100.0006103515625,102,19.41122055053711,18.91071128845215,2.639321804046631,-2.1920249462127686,"""uav16/gps_origin""",,,,19.525222778320312,18.748640060424805,2.6350343227386475,-2.191049098968506,3.3658103942871094,3.3874073028564453,13.916954040527344,15.356372833251953,4148,100.00059509277344,102,0.4999995529651642,100.50059509277344,100.50059509277344,"""OFFBOARD""",True,True,0.9643120169639587,15.99899959564209,-19.59000015258789,-4.259371757507324,0.46332916617393494,1.968875527381897,2.200000047683716,,"""Garmin_pix""",85.00050354003906,102,,10 m',NOTHING',[],True,True,True
1622128740900935177,,96,,0,0,'',"""uav16""","""pat""","""f450""","""\x02""",10.500000953674316,102,,,,,"""N/A""",False,41,100.00004577636719,102,21.050579071044922,17.779438018798828,2.626431465148926,-2.18808913230896,"""uav16/gps_origin""",,,,21.157503128051758,17.593727111816406,2.6350042819976807,-2.190795421600342,7.02656364440918,3.391446113586426,13.911235809326172,15.356372833251953,4148,100.00005340576172,102,0.4999942183494568,100.00006103515625,100.00006103515625,"""OFFBOARD""",True,True,0.9677903056144714,15.984999656677246,-19.90999984741211,-4.436173439025879,0.4642767608165741,1.9669545888900757,2.200000047683716,,"""Garmin_pix""",85.00005340576172,102,,10 m',NOTHING',[],True,True,True
1622128740901286747,,96,,0,0,'',"""uav16""","""pat""","""f450""","""\x02""",10.500000953674316,102,,,,,"""N/A""",False,41,100.00004577636719,102,21.050579071044922,17.779438018798828,2.626431465148926,-2.18808913230896,"""uav16/gps_origin""",,,,21.157503128051758,17.593727111816406,2.6350042819976807,-2.190795421600342,7.02656364440918,3.391446113586426,13.911235809326172,15.356372833251953,4148,100.00005340576172,102,0.4999942183494568,100.00006103515625,100.00006103515625,"""OFFBOARD""",True,True,0.9677903056144714,15.984999656677246,-19.90999984741211,-4.436173439025879,0.4642767608165741,1.9669545888900757,2.200000047683716,,"""Garmin_pix""",85.00005340576172,102,,10 m',NOTHING',[],True,True,True
1622128741900923482,,97,,0,0,'',"""uav16""","""pat""","""f450""","""\x02""",10.999946594238281,102,,,,,"""N/A""",False,42,99.9994888305664,102,22.51997947692871,16.7744140625,2.634692668914795,-2.1805989742279053,"""uav16/gps_origin""",,,,22.616214752197266,16.577051162719727,2.6351406574249268,-2.1909122467041016,10.214167594909668,3.3960494995117188,13.910118103027344,15.356372833251953,4148,99.99951171875,102,0.4999942183494568,99.99951171875,99.99951171875,"""OFFBOARD""",True,True,0.9712759852409363,15.984999656677246,-19.90999984741211,-4.436173439025879,0.4619491994380951,1.9727983474731445,2.200000047683716,,"""Garmin_pix""",84.99958801269531,102,,10 m',NOTHING',[],True,True,True
1622128742900915582,,98,,0,0,'',"""uav16""","""pat""","""f450""","""\x02""",11.000012397766113,102,,,,,"""N/A""",False,43,100.00011444091797,102,23.002092361450195,16.45677375793457,2.632913827896118,-2.1885547637939453,"""uav16/gps_origin""",,,,22.97905158996582,16.43671226501465,2.6384572982788086,-2.190912961959839,14.791502952575684,3.4670372009277344,13.91086196899414,15.356372833251953,4148,100.00011444091797,102,0.5000002384185791,100.00011444091797,100.00011444091797,"""OFFBOARD""",True,True,0.9623636603355408,15.970000267028809,-20.739999771118164,-4.620635986328125,0.45860448479652405,1.9818671941757202,2.200000047683716,,"""Garmin_pix""",85.5000991821289,102,,10 m',NOTHING',[],True,True,True
